[
  {
    "iata_code": "LHR",
    "name": "Heathrow Airport",
    "city": "London",
    "country": "United Kingdom",
    "coordinates": { "latitude": 51.4700, "longitude": -0.4543 }
  },
  {
    "iata_code": "JFK",
    "name": "John F. Kennedy International Airport",
    "city": "New York",
    "country": "United States",
    "coordinates": { "latitude": 40.6413, "longitude": -73.7781 }
  },
  {
    "iata_code": "CDG",
    "name": "Charles de Gaulle Airport",
    "city": "Paris",
    "country": "France",
    "coordinates": { "latitude": 49.0097, "longitude": 2.5479 }
  },
  {
    "iata_code": "FRA",
    "name": "Frankfurt Airport",
    "city": "Frankfurt",
    "country": "Germany",
    "coordinates": { "latitude": 50.0379, "longitude": 8.5622 }
  },
  {
    "iata_code": "AMS",
    "name": "Amsterdam Airport Schiphol",
    "city": "Amsterdam",
    "country": "Netherlands",
    "coordinates": { "latitude": 52.3105, "longitude": 4.7683 }
  },
  {
    "iata_code": "DXB",
    "name": "Dubai International Airport",
    "city": "Dubai",
    "country": "United Arab Emirates",
    "coordinates": { "latitude": 25.2532, "longitude": 55.3657 }
  },
  {
    "iata_code": "HND",
    "name": "Tokyo Haneda Airport",
    "city": "Tokyo",
    "country": "Japan",
    "coordinates": { "latitude": 35.5494, "longitude": 139.7798 }
  },
  {
    "iata_code": "LAX",
    "name": "Los Angeles International Airport",
    "city": "Los Angeles",
    "country": "United States",
    "coordinates": { "latitude": 33.9416, "longitude": -118.4085 }
  },
  {
    "iata_code": "ORD",
    "name": "O'Hare International Airport",
    "city": "Chicago",
    "country": "United States",
    "coordinates": { "latitude": 41.9742, "longitude": -87.9073 }
  },
  {
    "iata_code": "SIN",
    "name": "Singapore Changi Airport",
    "city": "Singapore",
    "country": "Singapore",
    "coordinates": { "latitude": 1.3644, "longitude": 103.9915 }
  },
  {
    "iata_code": "HKG",
    "name": "Hong Kong International Airport",
    "city": "Hong Kong",
    "country": "China",
    "coordinates": { "latitude": 22.3080, "longitude": 113.9185 }
  },
  {
    "iata_code": "ICN",
    "name": "Incheon International Airport",
    "city": "Seoul",
    "country": "South Korea",
    "coordinates": { "latitude": 37.4602, "longitude": 126.4407 }
  },
  {
    "iata_code": "SYD",
    "name": "Sydney Kingsford Smith Airport",
    "city": "Sydney",
    "country": "Australia",
    "coordinates": { "latitude": -33.9399, "longitude": 151.1753 }
  },
  {
    "iata_code": "YYZ",
    "name": "Toronto Pearson International Airport",
    "city": "Toronto",
    "country": "Canada",
    "coordinates": { "latitude": 43.6777, "longitude": -79.6248 }
  },
  {
    "iata_code": "DEL",
    "name": "Indira Gandhi International Airport",
    "city": "Delhi",
    "country": "India",
    "coordinates": { "latitude": 28.5562, "longitude": 77.1000 }
  },
  {
    "iata_code": "BOM",
    "name": "Chhatrapati Shivaji Maharaj International Airport",
    "city": "Mumbai",
    "country": "India",
    "coordinates": { "latitude": 19.0896, "longitude": 72.8656 }
  },
  {
    "iata_code": "BLR",
    "name": "Kempegowda International Airport Bengaluru",
    "city": "Bengaluru",
    "country": "India",
    "coordinates": { "latitude": 13.1986, "longitude": 77.7066 }
  },
  {
    "iata_code": "MAA",
    "name": "Chennai International Airport",
    "city": "Chennai",
    "country": "India",
    "coordinates": { "latitude": 12.9941, "longitude": 80.1709 }
  },
  {
    "iata_code": "HYD",
    "name": "Rajiv Gandhi International Airport",
    "city": "Hyderabad",
    "country": "India",
    "coordinates": { "latitude": 17.2403, "longitude": 78.4294 }
  },
  {
    "iata_code": "CCU",
    "name": "Netaji Subhash Chandra Bose International Airport",
    "city": "Kolkata",
    "country": "India",
    "coordinates": { "latitude": 22.6547, "longitude": 88.4467 }
  },
  {
    "iata_code": "COK",
    "name": "Cochin International Airport",
    "city": "Kochi",
    "country": "India",
    "coordinates": { "latitude": 10.1520, "longitude": 76.4019 }
  },
  {
    "iata_code": "AMD",
    "name": "Sardar Vallabhbhai Patel International Airport",
    "city": "Ahmedabad",
    "country": "India",
    "coordinates": { "latitude": 23.0732, "longitude": 72.6266 }
  },
  {
    "iata_code": "BCN",
    "name": "Barcelona–El Prat Airport",
    "city": "Barcelona",
    "country": "Spain",
    "coordinates": { "latitude": 41.2974, "longitude": 2.0833 }
  },
  {
    "iata_code": "MUC",
    "name": "Munich Airport",
    "city": "Munich",
    "country": "Germany",
    "coordinates": { "latitude": 48.3538, "longitude": 11.7861 }
  },
  {
    "iata_code": "ZRH",
    "name": "Zurich Airport",
    "city": "Zurich",
    "country": "Switzerland",
    "coordinates": { "latitude": 47.4581, "longitude": 8.5555 }
  },
  {
    "iata_code": "PEK",
    "name": "Beijing Capital International Airport",
    "city": "Beijing",
    "country": "China",
    "coordinates": { "latitude": 40.0799, "longitude": 116.6031 }
  },
  {
    "iata_code": "GRU",
    "name": "São Paulo/Guarulhos–Governador André Franco Montoro International Airport",
    "city": "São Paulo",
    "country": "Brazil",
    "coordinates": { "latitude": -23.4356, "longitude": -46.4731 }
  },
  {
    "iata_code": "IST",
    "name": "Istanbul Airport",
    "city": "Istanbul",
    "country": "Turkey",
    "coordinates": { "latitude": 41.2753, "longitude": 28.7519 }
  },
  {
    "iata_code": "MEX",
    "name": "Mexico City International Airport",
    "city": "Mexico City",
    "country": "Mexico",
    "coordinates": { "latitude": 19.4361, "longitude": -99.0719 }
  },
  {
    "iata_code": "SFO",
    "name": "San Francisco International Airport",
    "city": "San Francisco",
    "country": "United States",
    "coordinates": { "latitude": 37.6213, "longitude": -122.3790 }
  },
  {
    "iata_code": "KUL",
    "name": "Kuala Lumpur International Airport",
    "city": "Kuala Lumpur",
    "country": "Malaysia",
    "coordinates": { "latitude": 2.7456, "longitude": 101.7072 }
  }
] 